{"links":[{"rel":"first","href":"/v1/geo/cities?offset=0&limit=10&namePrefix=Mosc"},{"rel":"next","href":"/v1/geo/cities?offset=10&limit=10&namePrefix=Mosc"},{"rel":"last","href":"/v1/geo/cities?offset=100&limit=10&namePrefix=Mosc"}],"data":[{"id":357,"wikiDataId":"Q757298","type":"CITY","city":"Moscopole","name":"Moscopole","country":"Albania","countryCode":"AL","region":"Korçë County","regionCode":"06","regionWdId":"Q193464","latitude":40.633333333,"longitude":20.583333333,"population":0},{"id":1085,"wikiDataId":"Q2132246","type":"CITY","city":"General Mosconi","name":"General Mosconi","country":"Argentina","countryCode":"AR","region":"Salta Province","regionCode":"A","regionWdId":"Q44803","latitude":-22.6,"longitude":-63.81666667,"population":19811},{"id":3231484,"wikiDataId":"Q5532032","type":"CITY","city":"General Mosconi neighbourhood","name":"General Mosconi neighbourhood","country":"Argentina","countryCode":"AR","region":"Chubut Province","regionCode":"U","regionWdId":"Q45007","latitude":-45.7,"longitude":-67.4667,"population":0},{"id":3347901,"wikiDataId":"Q6492345","type":"CITY","city":"Las Moscas","name":"Las Moscas","country":"Argentina","countryCode":"AR","region":"Entre Ríos Province","regionCode":"E","regionWdId":"Q44762","latitude":-32.08333333,"longitude":-58.95,"population":0},{"id":3147,"wikiDataId":"Q661386","type":"CITY","city":"Moschendorf","name":"Moschendorf","country":"Austria","countryCode":"AT","region":"Burgenland","regionCode":"1","regionWdId":"Q43210","latitude":47.056388888,"longitude":16.477777777,"population":400},{"id":3227338,"wikiDataId":"Q6915398","type":"CITY","city":"Moschelle","name":"Moschelle","country":"Canada","countryCode":"CA","region":"Nova Scotia","regionCode":"NS","regionWdId":"Q1952","latitude":44.7533,"longitude":-65.4655,"population":0},{"id":3189417,"wikiDataId":"Q662492","type":"CITY","city":"Moschheim","name":"Moschheim","country":"Germany","countryCode":"DE","region":"Rhineland-Palatinate","regionCode":"RP","regionWdId":"Q1200","latitude":50.4825,"longitude":7.841666666,"population":751},{"id":3477875,"wikiDataId":"Q110688945","type":"CITY","city":"Cuevas del Mosco","name":"Cuevas del Mosco","country":"Spain","countryCode":"ES","region":"Andalusia","regionCode":"AN","regionWdId":"Q5783","latitude":37.71352,"longitude":-2.8018,"population":0},{"id":3519421,"wikiDataId":"Q1651168","type":"CITY","city":"Moscardón","name":"Moscardón","country":"Spain","countryCode":"ES","region":"Aragon","regionCode":"AR","regionWdId":"Q4040","latitude":40.332222222,"longitude":-1.536944444,"population":56},{"id":3485396,"wikiDataId":"Q1949024","type":"CITY","city":"Moscow","name":"Moscow","country":"United Kingdom","countryCode":"GB","region":"Scotland","regionCode":"SCT","regionWdId":"Q22","latitude":55.633333333,"longitude":-4.404166666,"population":118}],"metadata":{"currentOffset":0,"totalCount":105}}
